[{
  "town": "과림동",
  "name": "과림동 풋살장",
  "address": "경기도 시흥시 과림동 453",
  "latitude": 37.4392332,
  "longitude": 126.8305323,
  "exercise": "풋살"
 },
 {
  "town": "과림동",
  "name": "양지산 등산로 입구",
  "address": "경기도 시흥시 과림동 산43",
  "latitude": 37.4379336,
  "longitude": 126.8288151,
  "exercise": "하이킹"
 },
 {
  "town": "계수동",
  "name": "계수동 엘리트 체육관",
  "address": "경기도 시흥시 계수동 475-14",
  "latitude": 37.4475736,
  "longitude": 126.8067256,
  "exercise": "다목적체육관"
 },
 {
  "town": "계수동",
  "name": "은계호수공원",
  "address": "경기도 시흥시 계수동 716",
  "latitude": 37.4517466,
  "longitude": 126.8121631,
  "exercise": "산책, 런닝, 스케이트보드"
 },
 {
  "town": "계수동",
  "name": "계수동 체육시설",
  "address": "경기도 시흥시 계수동 475-14",
  "latitude": 37.4475736,
  "longitude": 126.8067256,
  "exercise": "게이트볼"
 },
 {
  "town": "능곡동",
  "name": "능곡 어울림센터",
  "address": "경기도 시흥시 능곡동 710번지",
  "latitude": 37.3663813,
  "longitude": 126.8159891,
  "exercise": "수영, 체력단련"
 },
 {
  "town": "능곡동",
  "name": "능골근린공원",
  "address": "경기도 시흥시 능곡동 781",
  "latitude": 37.3655917,
  "longitude": 126.8082798,
  "exercise": "인라인 스케이트"
 },
 {
  "town": "능곡동",
  "name": "해로근린공원",
  "address": "경기도 시흥시 능곡동 860",
  "latitude": 37.3653508,
  "longitude": 126.8090217,
  "exercise": "산책 "
 },
 {
  "town": "능곡동",
  "name": "능곡중앙공원",
  "address": "경기도 시흥시 능곡동 766번지",
  "latitude": 37.3679732,
  "longitude": 126.8138028,
  "exercise": "물놀이"
 },
 {
  "town": "하중동",
  "name": "장터골 어린이공원",
  "address": "경기도 시흥시 하중동 826-2번지",
  "latitude": 37.3996682999999,
  "longitude": 126.8006707,
  "exercise": "배드민턴, 다목적 운동기구"
 },
 {
  "town": "하중동",
  "name": "샛말근린공원",
  "address": "경기도 시흥시 하중동 848",
  "latitude": 37.3959298,
  "longitude": 126.8044001,
  "exercise": "물놀이, 다목적 운동기구"
 },
 {
  "town": "하상동",
  "name": "오성 근린공원",
  "address": "경기도 시흥시 하상동 372번지",
  "latitude": 37.3917551,
  "longitude": 126.8143857,
  "exercise": "배드민턴, 풋살"
 },
 {
  "town": "물왕동",
  "name": "물왕호수공원",
  "address": "경기도 시흥시 물왕동 물왕호수",
  "latitude": 37.3821839,
  "longitude": 126.834557,
  "exercise": "산책, 런닝"
 },
 {
  "town": "산현동",
  "name": "장당택지 근린공원",
  "address": "경기도 시흥시 산현동 495번지",
  "latitude": 37.3778705,
  "longitude": 126.8461253,
  "exercise": "산책"
 },
 {
  "town": "조남동",
  "name": "조남동 풋살구장",
  "address": "경기도 시흥시 동서로 989-67",
  "latitude": 37.3847051,
  "longitude": 126.8512006,
  "exercise": "풋살"
 },
 {
  "town": "조남동",
  "name": "산현공원",
  "address": "경기도 시흥시 조남동 670번지",
  "latitude": 37.3736919,
  "longitude": 126.8507639,
  "exercise": "배드민턴, 물놀이"
 },
 {
  "town": "조남동",
  "name": "목감동 족구장",
  "address": "경기도 시흥시 조남동 222-4",
  "latitude": 37.3794165,
  "longitude": 126.8559618,
  "exercise": "족구"
 },
 {
  "town": "조남동",
  "name": "세미체육공원",
  "address": "경기도 시흥시 조남동 705",
  "latitude": 37.3773963999999,
  "longitude": 126.8576074,
  "exercise": "배드민턴, 농구, 풋살"
 },
 {
  "town": "목감동",
  "name": "다니체육공원 체육시설",
  "address": "경기도 시흥시 조남동 689 일원",
  "latitude": 37.3754527,
  "longitude": 126.8569336,
  "exercise": "골프, 농구"
 },
 {
  "town": "목감동",
  "name": "목감공원",
  "address": "경기도 시흥시 목감동 398",
  "latitude": 37.3855646,
  "longitude": 126.8613316,
  "exercise": "다목적 운동기구"
 },
 {
  "town": "거모동",
  "name": "산들공원",
  "address": "경기도 시흥시 거모동 1352",
  "latitude": 37.347139,
  "longitude": 126.7807569,
  "exercise": "체력단련장, 산책"
 },
 {
  "town": "군자동",
  "name": "거모동 체육시설",
  "address": "경기도 시흥시 거모동 1632-20번지",
  "latitude": 37.3413233,
  "longitude": 126.7865088,
  "exercise": "배드민턴, 족구, 테니스"
 },
 {
  "town": "장현동",
  "name": "세재공원",
  "address": "경기도 시흥시 장현동 529-1",
  "latitude": 37.3826776,
  "longitude": 126.8015796,
  "exercise": "산책, 런닝"
 },
 {
  "town": "대야동",
  "name": "은계숲생태공원",
  "address": "경기도 시흥시 대야동 642-190",
  "latitude": 37.4489286,
  "longitude": 126.8007802,
  "exercise": "산책, 런닝, 농구"
 },
 {
  "town": "대야동",
  "name": "시흥시체육관",
  "address": "경기도 시흥시 서해안로 1589",
  "latitude": 37.3944639,
  "longitude": 126.743953,
  "exercise": "농구, 배구, 배드민턴, 탁구"
 },
 {
  "town": "대야동",
  "name": "소래산",
  "address": "경기도 시흥시 대야동.",
  "latitude": 37.4550472,
  "longitude": 126.7889962,
  "exercise": "등산"
 },
 {
  "town": "대야동",
  "name": "소래산림욕장",
  "address": "경기도 시흥시 대야동 332-80",
  "latitude": 37.4497092,
  "longitude": 126.7829186,
  "exercise": "산책, 야외 운동기구"
 },
 {
  "town": "대야동",
  "name": "생매공원",
  "address": "경기도 시흥시 대야동 570-3",
  "latitude": 37.4467931999999,
  "longitude": 126.7942235,
  "exercise": "야외 운동기구"
 },
 {
  "town": "신천동",
  "name": "신천근린공원",
  "address": "경기도 시흥시 포도원로 109번길 9",
  "latitude": 37.435613,
  "longitude": 126.7854494,
  "exercise": "산책, 런닝, 농구, 배드민턴"
 },
 {
  "town": "신천동",
  "name": "신천동체육시설",
  "address": "경기도 시흥시 신천동 518-5",
  "latitude": 37.4350025,
  "longitude": 126.7753331,
  "exercise": "풋살, 게이트볼, 족구, 농구"
 },
 {
  "town": "신천동",
  "name": "백년정원",
  "address": "경기도 시흥시 신천동 178-2",
  "latitude": 37.4326608999999,
  "longitude": 126.78677,
  "exercise": "산책, 달리기"
 },
 {
  "town": "신천동",
  "name": "신라공원",
  "address": "경기도 시흥시 신천동 742",
  "latitude": 37.440775,
  "longitude": 126.7817,
  "exercise": "농구, 야외 운동기구"
 },
 {
  "town": "신천동",
  "name": "신일공원",
  "address": "경기도 시흥시 신천동 890-1",
  "latitude": 37.4308932,
  "longitude": 126.7907275,
  "exercise": "농구, 야외 운동기구"
 },
 {
  "town": "신천동",
  "name": "현진공원",
  "address": "경기도 시흥시 신천동 775",
  "latitude": 37.4384542,
  "longitude": 126.7876321,
  "exercise": "농구, 야외 운동기구"
 },
 {
  "town": "신천동",
  "name": "백제공원",
  "address": "경기도 시흥시 신천동 884-5",
  "latitude": 37.4321384,
  "longitude": 126.7922576,
  "exercise": "농구, 야외 운동기구"
 },
 {
  "town": "신천동",
  "name": "동지공원",
  "address": "경기도 시흥시 신천동 857-1",
  "latitude": 37.4365805,
  "longitude": 126.7888914,
  "exercise": "야외 운동기구"
 },
 {
  "town": "방산동",
  "name": "시흥승마클럽",
  "address": "경기도 시흥시 방산동 722",
  "latitude": 37.4037308,
  "longitude": 126.7628801,
  "exercise": "승마"
 },
 {
  "town": "방산동",
  "name": "소래정",
  "address": "경기도 시흥시 방산동 262-19",
  "latitude": 37.4216719,
  "longitude": 126.7674694,
  "exercise": "국궁"
 },
 {
  "town": "포동",
  "name": "포동생활체육공원",
  "address": "경기도 시흥시 포동 67-207",
  "latitude": 37.4038779,
  "longitude": 126.7845798,
  "exercise": "축구, 테니스, 농구, 인라인"
 },
 {
  "town": "포동",
  "name": "학미산",
  "address": "경기도 시흥시 포동",
  "latitude": 37.4035457,
  "longitude": 126.7769261,
  "exercise": "등산"
 },
 {
  "town": "미산동",
  "name": "신현솔숲공원",
  "address": "경기도 시흥시 미산동 산12-6",
  "latitude": 37.4189208,
  "longitude": 126.7917749,
  "exercise": "농구, 야외 운동기구"
 },
 {
  "town": "은행동",
  "name": "비둘기공원",
  "address": "경기도 시흥시 은행동 551",
  "latitude": 37.441485,
  "longitude": 126.794085,
  "exercise": "산책, 런닝, 농구, 테니스"
 },
 {
  "town": "은행동",
  "name": "검바위하늘공원",
  "address": "경기도 시흥시 은행동 660",
  "latitude": 37.4339437,
  "longitude": 126.7999518,
  "exercise": "산책, 런닝, 야외 운동시설"
 },
 {
  "town": "은행동",
  "name": "은행천물길공원",
  "address": "경기도 시흥시 은행동 217-35",
  "latitude": 37.430405,
  "longitude": 126.8024236,
  "exercise": "산책, 런닝, 자전거"
 },
 {
  "town": "은행동",
  "name": "은행근린공원",
  "address": "경기도 시흥시 은행로 246",
  "latitude": 37.4441715,
  "longitude": 126.7954998,
  "exercise": "산책, 런닝, 농구, 테니스"
 },
 {
  "town": "은행동",
  "name": "오난산전망공원",
  "address": "경기도 시흥시 은행동 622",
  "latitude": 37.44203,
  "longitude": 126.8064394,
  "exercise": "산책"
 },
 {
  "town": "은행동",
  "name": "은계호수공원",
  "address": "경기도 시흥시 은행동 601-150",
  "latitude": 37.4443998,
  "longitude": 126.807253,
  "exercise": "산책"
 },
 {
  "town": "은행동",
  "name": "웃터골공원",
  "address": "경기도 시흥시 은행동 600",
  "latitude": 37.4444851,
  "longitude": 126.8011894,
  "exercise": "야외 운동기구"
 },
 {
  "town": "안현동",
  "name": "양지산",
  "address": "경기도 시흥시 안현동",
  "latitude": 37.4299912,
  "longitude": 126.8151255,
  "exercise": "등산"
 },
 {
  "town": "매화동",
  "name": "용도수목원",
  "address": "경기도 시흥시 매화동 11-26",
  "latitude": 37.4197564,
  "longitude": 126.8267919,
  "exercise": "산책"
 },
 {
  "town": "금어동",
  "name": "시흥 스카이민턴",
  "address": "경기도 시흥시 금이동 355-2",
  "latitude": 37.3983063,
  "longitude": 126.836412,
  "exercise": "배드민턴"
 },
 {
  "town": "금어동",
  "name": "드림풋살장",
  "address": "경기도 시흥시 금이동 56-7",
  "latitude": 37.4059588,
  "longitude": 126.8449467,
  "exercise": "풋살"
 },
 {
  "town": "정왕동",
  "name": "중앙공원",
  "address": "경기도 시흥시 정왕동 1845-1",
  "latitude": 37.3490427,
  "longitude": 126.735419,
  "exercise": "런닝, 인라인, 농구, 풋살"
 },
 {
  "town": "정왕동",
  "name": "곰솔누리숲",
  "address": "경기도 시흥시 정왕동 1961",
  "latitude": 37.3412909,
  "longitude": 126.7354609,
  "exercise": "농구, 런닝, 배드민턴"
 },
 {
  "town": "정왕동",
  "name": "한국공학대학교",
  "address": "경기도 시흥시 정왕동 2121-2",
  "latitude": 37.3409019,
  "longitude": 126.7316111,
  "exercise": "농구, 풋살, 런닝"
 },
 {
  "town": "정왕동",
  "name": "경기과학기술대학교",
  "address": "경기도 시흥시 정왕동 2122-1",
  "latitude": 37.3370504,
  "longitude": 126.7381343,
  "exercise": "농구, 축구, 런닝"
 },
 {
  "town": "정왕동",
  "name": "유앤싸커시흥",
  "address": "경기도 시흥시 정왕동 1799-4",
  "latitude": 37.3466247,
  "longitude": 126.7393923,
  "exercise": "풋살"
 },
 {
  "town": "정왕동",
  "name": "서촌공원",
  "address": "경기도 시흥시 정왕동 1848-2",
  "latitude": 37.3485579,
  "longitude": 126.7266811,
  "exercise": "족구, 체력단련장"
 },
 {
  "town": "정왕동",
  "name": "송운공원",
  "address": "경기도 시흥시 정왕동 1873-1",
  "latitude": 37.3583724,
  "longitude": 126.7326524,
  "exercise": "풋살, 체력단련장, 족구, 산책"
 },
 {
  "town": "정왕동",
  "name": "희망공원",
  "address": "경기도 시흥시 정왕동 1358",
  "latitude": 37.337058,
  "longitude": 126.7147493,
  "exercise": "축구, 테니스"
 },
 {
  "town": "정왕동",
  "name": "소망공원",
  "address": "경기도 시흥시 정왕동 1368",
  "latitude": 37.3334364,
  "longitude": 126.7256318,
  "exercise": "야구, 테니스"
 },
 {
  "town": "정왕동",
  "name": "새싹공원",
  "address": "경기도 시흥시 정왕동 1412-9",
  "latitude": 37.3400672,
  "longitude": 126.7512036,
  "exercise": "체력단련장 "
 },
 {
  "town": "정왕동",
  "name": "정왕동체육공원",
  "address": "경기도 시흥시 정왕동 2160",
  "latitude": 37.3384071,
  "longitude": 126.7561886,
  "exercise": "인라인, 축구, 배드민턴, 테니스"
 },
 {
  "town": "정왕동",
  "name": "나래솔근린공원",
  "address": "경기도 시흥시 정왕동 2606-3",
  "latitude": 37.3233156,
  "longitude": 126.7042308,
  "exercise": "농구"
 },
 {
  "town": "정왕동",
  "name": "배움의숲 운동장",
  "address": "경기도 시흥시 정왕동 1969",
  "latitude": 37.3342475,
  "longitude": 126.7468165,
  "exercise": "게이트볼"
 },
 {
  "town": "정왕동",
  "name": "정왕4동 그라운드골프장",
  "address": "경기도 시흥시 정왕동 1132",
  "latitude": 37.3684168,
  "longitude": 126.739285,
  "exercise": "그라운드 골프"
 },
 {
  "town": "정왕동",
  "name": "함송 실외 체육시설",
  "address": "경기도 시흥시 정왕동 1878-1",
  "latitude": 37.3664261,
  "longitude": 126.7325789,
  "exercise": "풋살, 족구"
 },
 {
  "town": "정왕동",
  "name": "옥구공원",
  "address": "경기도 시흥시 정왕동 2138",
  "latitude": 37.3555956,
  "longitude": 126.7123587,
  "exercise": "등산, 축구, 농구, 런닝, 인라인"
 },
 {
  "town": "배곧동",
  "name": "배곧 체육시설",
  "address": "경기도 시흥시 배곧4로 32-5",
  "latitude": 37.3759649,
  "longitude": 126.727453,
  "exercise": "테니스, 풋살"
 },
 {
  "town": "배곧동",
  "name": "배곧 체육시설",
  "address": "경기도 시흥시 배곧동 149",
  "latitude": 37.3738417,
  "longitude": 126.7316166,
  "exercise": "농구, 런닝"
 },
 {
  "town": "배곧동",
  "name": "배곧한울공원해수풀장",
  "address": "경기도 시흥시 배곧동307",
  "latitude": 37.3559351,
  "longitude": 126.7036885,
  "exercise": "수영, 워터파크"
 },
 {
  "town": "배곧동",
  "name": "배곧한라비발디캠퍼스3차트랙",
  "address": "경기도 시흥시 배곧동 262",
  "latitude": 37.3614149,
  "longitude": 126.718811,
  "exercise": "런닝, 테니스"
 },
 {
  "town": "배곧동",
  "name": "배곧생명공원",
  "address": "경기도 시흥시 정왕동 2506",
  "latitude": 37.3411588,
  "longitude": 126.7220994,
  "exercise": "등산"
 },
 {
  "town": "월곶동",
  "name": "월곶역",
  "address": "경기도 시흥시 월곶동 992-8",
  "latitude": 37.391477,
  "longitude": 126.7424364,
  "exercise": "풋살, 배드민턴, 게이트볼, 농구"
 },
 {
  "town": "월곶동",
  "name": "월곶에코피아 체육시설",
  "address": "경기도 시흥시 월곶동 520-373",
  "latitude": 37.3901459,
  "longitude": 126.7628897,
  "exercise": "수영, 워터파크, 풋살, 야구, 썰매, 족구"
 },
 {
  "town": "월곶동",
  "name": "달월 생활체육관",
  "address": "경기도 시흥시 월곶동 951-17",
  "latitude": 37.3815158,
  "longitude": 126.763991,
  "exercise": "탁구"
 },
 {
  "town": "월곶동",
  "name": "달월 실외체육시설",
  "address": "경기도 시흥시 월곶동 950-20",
  "latitude": 37.3822558,
  "longitude": 126.7630183,
  "exercise": "풋살, 게이트볼"
 },
 {
  "town": "장곡동",
  "name": "장곡문화체육센터",
  "address": "경기도 시흥시 장곡동 811-1",
  "latitude": 37.3775762,
  "longitude": 126.7828627,
  "exercise": "농구, 다목적 체육관"
 },
 {
  "town": "장곡동",
  "name": "새싹어린이공원",
  "address": "경기도 시흥시 장곡동 796",
  "latitude": 37.381127,
  "longitude": 126.7825376,
  "exercise": "농구"
 },
 {
  "town": "장곡동",
  "name": "가온근린공원",
  "address": "경기도 시흥시 장곡동 938-1",
  "latitude": 37.33774,
  "longitude": 126.7498135,
  "exercise": "풋살, 배드민턴, 등산"
 },
 {
  "town": "장곡동",
  "name": "진말공원",
  "address": "경기도 시흥시 장곡동 825-2",
  "latitude": 37.3785242,
  "longitude": 126.7876346,
  "exercise": "족구"
 },
 {
  "town": "죽율동",
  "name": "죽율체육공원",
  "address": "경기도 시흥시 죽율동 610",
  "latitude": 37.3489858,
  "longitude": 126.7601456,
  "exercise": "농구, 풋살, 체력단련장"
 },
 {
  "town": "신현동",
  "name": "학미산",
  "address": "경기도 시흥시 포동(지번 안나옴)",
  "latitude": 37.4035457,
  "longitude": 126.7769261,
  "exercise": "등산"
 },
 {
  "town": "신현동",
  "name": "시흥실내게이트볼장",
  "address": "경기도 시흥시 포동 67-77",
  "latitude": 37.4014611,
  "longitude": 126.7734664,
  "exercise": "게이트볼"
 },
 {
  "town": "무지내동",
  "name": "경기자동차과학고등학교",
  "address": "경기도 시흥시 무지내동 341-2",
  "latitude": 37.4133611,
  "longitude": 126.8395522,
  "exercise": "축구"
 },
 {
  "town": "연성동",
  "name": "시흥 국민체육센터",
  "address": "경기도 시흥시 하중로 226",
  "latitude": 37.3914933,
  "longitude": 126.8052888,
  "exercise": "배드민턴, 수영"
 },
 {
  "town": "거북섬동",
  "name": "야외 농구장",
  "address": "경기도 시흥시 정왕동 2798",
  "latitude": 37.3154909,
  "longitude": 126.7043095,
  "exercise": "농구"
 },
 {
  "name": "시화 MTV체육시설",
  "address": "경기도 시흥시 정왕동 2659",
  "latitude": 37.3184153,
  "longitude": 126.7064638,
  "exercise": "축구, 농구, 풋살, 게이트볼"
 }
  ]